{
"type": "FeatureCollection",
"name": "Vyborg_food_points",
"crs": { "type": "name", "properties": { "name": "urn:ogc:def:crs:EPSG::32635" } },
"features": [
{ "type": "Feature", "properties": { "fid": 1, "num": 1, "name": "Гастропаб Буча", "type": 2, "adress": "Крепостная ул., 13, Выборг", "Longitude": "28.7340806", "Latitude": 60.7123757 }, "geometry": { "type": "Point", "coordinates": [ 594631.804584450437687, 6732008.566862368956208 ] } },
{ "type": "Feature", "properties": { "fid": 2, "num": 2, "name": "Ресторан Жасмин", "type": 2, "adress": "Крепостная ул., 25, Выборг", "Longitude": "28.7376035", "Latitude": 60.7108821 }, "geometry": { "type": "Point", "coordinates": [ 594817.461941631510854, 6731830.821163129992783 ] } },
{ "type": "Feature", "properties": { "fid": 3, "num": 3, "name": "Кафе Остров", "type": 1, "adress": "наб. Адмирала Апраксина, 7А, Выборг", "Longitude": "28.724279", "Latitude": 60.7164759 }, "geometry": { "type": "Point", "coordinates": [ 594089.474702482111752, 6731780.492712019011378 ] } },
{ "type": "Feature", "properties": { "fid": 4, "num": 4, "name": "Paparazzi bistro", "type": 2, "adress": "ул. Димитрова, 5, Выборг", "Longitude": "28.7483153", "Latitude": 60.7113463 }, "geometry": { "type": "Point", "coordinates": [ 595400.564019672339782, 6731910.369453527964652 ] } },
{ "type": "Feature", "properties": { "fid": 5, "num": 5, "name": "Паб Champion", "type": 2, "adress": "просп. Ленина, 18, Выборг", "Longitude": "28.7471218", "Latitude": 60.7104945 }, "geometry": { "type": "Point", "coordinates": [ 595331.727011739625596, 6731822.435097571462393 ] } },
{ "type": "Feature", "properties": { "fid": 6, "num": 6, "name": "Ресторан Kellari", "type": 2, "adress": "Подгорная ул., 9, Выборг", "Longitude": "28.731797", "Latitude": 60.713877 }, "geometry": { "type": "Point", "coordinates": [ 594499.502915278426372, 6732164.109759104438126 ] } },
{ "type": "Feature", "properties": { "fid": 7, "num": 7, "name": "Лариса и Гедонисты", "type": 2, "adress": "просп. Ленина, 4, Выборг", "Longitude": "28.7401726", "Latitude": 60.7130775 }, "geometry": { "type": "Point", "coordinates": [ 594958.822813277714886, 6732087.162451100535691 ] } },
{ "type": "Feature", "properties": { "fid": 8, "num": 8, "name": "Крендель", "type": 1, "adress": "ул. Северный Вал, 3, Выборг", "Longitude": "28.7295863", "Latitude": 60.7155177 }, "geometry": { "type": "Point", "coordinates": [ 594374.078388845548034, 6732343.628580826334655 ] } },
{ "type": "Feature", "properties": { "fid": 9, "num": 9, "name": "Славянская трапеза", "type": 2, "adress": "ул. Южный Вал, 4, Выборг", "Longitude": "28.7294462", "Latitude": 60.7136677 }, "geometry": { "type": "Point", "coordinates": [ 594371.860166423721239, 6732137.42363131698221 ] } },
{ "type": "Feature", "properties": { "fid": 10, "num": 10, "name": "Таверна", "type": 2, "adress": "Крепостная ул., 3, Выборг", "Longitude": "28.7314057", "Latitude": 60.7134414 }, "geometry": { "type": "Point", "coordinates": [ 594479.432932693162002, 6732115.041369228623807 ] } },
{ "type": "Feature", "properties": { "fid": 11, "num": 11, "name": "Cup", "type": 1, "adress": "Прогонная ул., 1, Выборг", "Longitude": "28.7331843", "Latitude": 60.7144649 }, "geometry": { "type": "Point", "coordinates": [ 594573.464396343799308, 6732231.571063751354814 ] } },
{ "type": "Feature", "properties": { "fid": 12, "num": 12, "name": "August Wahl - jazz cafe", "type": 2, "adress": "Крепостная ул., 8, Выборг", "Longitude": "28.7323703", "Latitude": 60.7134293 }, "geometry": { "type": "Point", "coordinates": [ 594531.297212735167705, 6732101.85081397742033 ] } },
{ "type": "Feature", "properties": { "fid": 13, "num": 13, "name": "Фабрика кренделей", "type": 1, "adress": "Красноармейская ул., 12, Выборг", "Longitude": "28.7355424", "Latitude": 60.7123771 }, "geometry": { "type": "Point", "coordinates": [ 594694.095594929414801, 6731982.978129100985825 ] } },
{ "type": "Feature", "properties": { "fid": 14, "num": 14, "name": "Камелот", "type": 2, "adress": "Красноармейская ул., 14, Выборг", "Longitude": "28.735764", "Latitude": 60.7125658 }, "geometry": { "type": "Point", "coordinates": [ 594711.479171657236293, 6732009.247899174690247 ] } },
{ "type": "Feature", "properties": { "fid": 15, "num": 15, "name": "Выборгская карамель", "type": 1, "adress": "Пионерская ул., 4, Выборг", "Longitude": "28.7371005", "Latitude": 60.7123779 }, "geometry": { "type": "Point", "coordinates": [ 594787.338153551798314, 6731993.838481503538787 ] } },
{ "type": "Feature", "properties": { "fid": 16, "num": 16, "name": "Панда", "type": 2, "adress": "ул. Северный Вал, 21, Выборг", "Longitude": "28.7371742", "Latitude": 60.7135764 }, "geometry": { "type": "Point", "coordinates": [ 594793.760884925024584, 6732138.385394436307251 ] } },
{ "type": "Feature", "properties": { "fid": 17, "num": 17, "name": "Probel Bar & Kitchen", "type": 2, "adress": "Пионерская ул., 4, Выборг", "Longitude": "28.7371005", "Latitude": 60.7123779 }, "geometry": { "type": "Point", "coordinates": [ 594805.891263932920992, 6732028.551719019189477 ] } },
{ "type": "Feature", "properties": { "fid": 18, "num": 18, "name": "На Крепостной", "type": 2, "adress": "Крепостная ул., 23, Выборг", "Longitude": "28.7364641", "Latitude": 60.7115104 }, "geometry": { "type": "Point", "coordinates": [ 594767.563774674083106, 6731907.398922485299408 ] } },
{ "type": "Feature", "properties": { "fid": 19, "num": 19, "name": "Эспиля", "type": 2, "adress": "просп. Ленина, 3А, Выборг", "Longitude": "28.7429089", "Latitude": 60.7110102 }, "geometry": { "type": "Point", "coordinates": [ 595114.224273935658857, 6731860.921679546125233 ] } },
{ "type": "Feature", "properties": { "fid": 20, "num": 20, "name": "Сова", "type": 1, "adress": "Красноармейская ул., 11, Выборг", "Longitude": "28.736058", "Latitude": 60.7124472 }, "geometry": { "type": "Point", "coordinates": [ 594736.18598283175379, 6732011.035079189576209 ] } },
{ "type": "Feature", "properties": { "fid": 21, "num": 21, "name": "Столовая", "type": 2, "adress": "ул. Южный Вал, 30, Выборг", "Longitude": "28.7341616", "Latitude": 60.7098006 }, "geometry": { "type": "Point", "coordinates": [ 594641.486776886042207, 6731713.007813837379217 ] } },
{ "type": "Feature", "properties": { "fid": 22, "num": 22, "name": "У Борхарда", "type": 2, "adress": "Подгорная ул., 10, Выборг", "Longitude": "28.7314714", "Latitude": 60.7140593 }, "geometry": { "type": "Point", "coordinates": [ 594481.203408024739474, 6732183.94105003029108 ] } },
{ "type": "Feature", "properties": { "fid": 23, "num": 23, "name": "Black Bull & Bar", "type": 2, "adress": "Прогонная ул., 7Б, Выборг", "Longitude": "28.73475", "Latitude": 60.713719 }, "geometry": { "type": "Point", "coordinates": [ 594661.079280960839242, 6732150.768163924105465 ] } },
{ "type": "Feature", "properties": { "fid": 24, "num": 24, "name": "Круглая Башня", "type": 2, "adress": "Рыночная площадь, 1, Выборг", "Longitude": "28.7374184", "Latitude": 60.7134909 }, "geometry": { "type": "Point", "coordinates": [ 594804.547394463210367, 6732067.463665403425694 ] } },
{ "type": "Feature", "properties": { "fid": 25, "num": 25, "name": "Бистро", "type": 1, "adress": "ул. Северный Вал, 2, Выборг", "Longitude": "28.735944", "Latitude": 60.7144283 }, "geometry": { "type": "Point", "coordinates": [ 594779.6626666279044, 6732199.417544747702777 ] } },
{ "type": "Feature", "properties": { "fid": 26, "num": 26, "name": "Медведь", "type": 2, "adress": "Крепостная ул., 6, Выборг", "Longitude": "28.7315985", "Latitude": 60.7135718 }, "geometry": { "type": "Point", "coordinates": [ 594489.509374559507705, 6732132.584180257283151 ] } },
{ "type": "Feature", "properties": { "fid": 27, "num": 27, "name": "Выборгский дворъ", "type": 2, "adress": "ул. Южный Вал, 2, Выборг", "Longitude": "28.7294774", "Latitude": 60.7119684 }, "geometry": { "type": "Point", "coordinates": [ 594386.560880281380378, 6731920.106465778313577 ] } },
{ "type": "Feature", "properties": { "fid": 28, "num": 28, "name": "Чача", "type": 2, "adress": "Петровская наб., 31, Выборг", "Longitude": "28.7321652", "Latitude": 60.7173983 }, "geometry": { "type": "Point", "coordinates": [ 594509.248977548442781, 6732556.747791302390397 ] } },
{ "type": "Feature", "properties": { "fid": 29, "num": 29, "name": "Hello, Bread!", "type": 1, "adress": "Крепостная ул., 2/4, Выборг", "Longitude": "28.7303452", "Latitude": 60.7141006 }, "geometry": { "type": "Point", "coordinates": [ 594419.638619882287458, 6732186.920477135106921 ] } },
{ "type": "Feature", "properties": { "fid": 30, "num": 30, "name": "МёдБург", "type": 1, "adress": "Крепостная ул., 5, Выборг", "Longitude": "28.7318854", "Latitude": 60.7132638 }, "geometry": { "type": "Point", "coordinates": [ 594506.126604949356988, 6732095.955141444690526 ] } },
{ "type": "Feature", "properties": { "fid": 31, "num": 31, "name": "Синьора Помидора", "type": 2, "adress": "ул. Южный Вал, 2, Выборг", "Longitude": "28.7294774", "Latitude": 60.7119684 }, "geometry": { "type": "Point", "coordinates": [ 594374.331188966752961, 6731966.693724081851542 ] } },
{ "type": "Feature", "properties": { "fid": 32, "num": 32, "name": "Глория", "type": 2, "adress": "Рыбный пер., 2А, Выборг", "Longitude": "28.7407449", "Latitude": 60.7128466 }, "geometry": { "type": "Point", "coordinates": [ 594986.301957464660518, 6732070.254183451645076 ] } },
{ "type": "Feature", "properties": { "fid": 33, "num": 33, "name": "Пышечная купца Маркелова", "type": 1, "adress": "просп. Ленина, 6, Выборг", "Longitude": "28.741842", "Latitude": 60.71249 }, "geometry": { "type": "Point", "coordinates": [ 595044.212627712055109, 6732025.415937251411378 ] } },
{ "type": "Feature", "properties": { "fid": 34, "num": 34, "name": "Суши Wok", "type": 2, "adress": "бул. Кутузова, 39, Выборг", "Longitude": "28.7560515", "Latitude": 60.7085219 }, "geometry": { "type": "Point", "coordinates": [ 595834.410611496889032, 6731590.8457873435691 ] } },
{ "type": "Feature", "properties": { "fid": 35, "num": 35, "name": "Где мое саке?", "type": 2, "adress": "Железнодорожная ул., 9/15, Выборг", "Longitude": "28.7520483", "Latitude": 60.7143901 }, "geometry": { "type": "Point", "coordinates": [ 595592.399121101829223, 6732255.579226322472095 ] } },
{ "type": "Feature", "properties": { "fid": 36, "num": 36, "name": "Евразия", "type": 2, "adress": "Ленинградский просп., 29/2, Выборг", "Longitude": "28.7493948", "Latitude": 60.7137006 }, "geometry": { "type": "Point", "coordinates": [ 595456.011622859048657, 6732170.170498489402235 ] } },
{ "type": "Feature", "properties": { "fid": 37, "num": 37, "name": "Бест", "type": 2, "adress": "Железнодорожная ул., 9/15, Выборг", "Longitude": "28.7520483", "Latitude": 60.7143901 }, "geometry": { "type": "Point", "coordinates": [ 595581.370535674970597, 6732219.807087237946689 ] } },
{ "type": "Feature", "properties": { "fid": 38, "num": 38, "name": "Чебуречная", "type": 2, "adress": "Ильинская ул., 8А, Выборг", "Longitude": "28.7562155", "Latitude": 60.7136072 }, "geometry": { "type": "Point", "coordinates": [ 595830.797968245809898, 6732180.893557415343821 ] } },
{ "type": "Feature", "properties": { "fid": 39, "num": 39, "name": "Friends", "type": 2, "adress": "Школьный пер., 3, Выборг", "Longitude": "28.754778", "Latitude": 60.7098572 }, "geometry": { "type": "Point", "coordinates": [ 595761.626134218065999, 6731738.98658948764205 ] } },
{ "type": "Feature", "properties": { "fid": 40, "num": 40, "name": "У Борхарда", "type": 2, "adress": "Подгорная ул., 10, Выборг", "Longitude": "28.7314714", "Latitude": 60.7140593 }, "geometry": { "type": "Point", "coordinates": [ 594481.203408024739474, 6732183.94105003029108 ] } },
{ "type": "Feature", "properties": { "fid": 41, "num": 41, "name": "Сен-Жермен", "type": 2, "adress": "Московский просп., 22, Выборг", "Longitude": "28.7521336", "Latitude": 60.7091733 }, "geometry": { "type": "Point", "coordinates": [ 595623.011156058986671, 6731669.771386043168604 ] } },
{ "type": "Feature", "properties": { "fid": 42, "num": 42, "name": "Бургерная Где мясо", "type": 2, "adress": "Садовая ул., 11, Выборг", "Longitude": "28.7480928", "Latitude": 60.7051128 }, "geometry": { "type": "Point", "coordinates": [ 595402.261904577724636, 6731223.065117604099214 ] } },
{ "type": "Feature", "properties": { "fid": 43, "num": 43, "name": "Виктория", "type": 1, "adress": "Ленинградский просп., 31, Выборг", "Longitude": "28.7505168", "Latitude": 60.713902 }, "geometry": { "type": "Point", "coordinates": [ 595519.365055564674549, 6732201.743946196511388 ] } },
{ "type": "Feature", "properties": { "fid": 44, "num": 44, "name": "Вкусно — и точка", "type": 2, "adress": "Железнодорожный тупик, 4, Выборг", "Longitude": "28.7726821", "Latitude": 60.7075842 }, "geometry": { "type": "Point", "coordinates": [ 596735.164833943359554, 6731470.642388719134033 ] } },
{ "type": "Feature", "properties": { "fid": 45, "num": 45, "name": "Rostic's", "type": 2, "adress": "Железнодорожная ул., 7, Выборг", "Longitude": "28.749044", "Latitude": 60.7095622 }, "geometry": { "type": "Point", "coordinates": [ 595448.053032745141536, 6732284.11512628942728 ] } },
{ "type": "Feature", "properties": { "fid": 46, "num": 46, "name": "Пышки", "type": 1, "adress": "Железнодорожная ул., 7, Выборг", "Longitude": "28.749044", "Latitude": 60.7095622 }, "geometry": { "type": "Point", "coordinates": [ 595440.98548235767521, 6732301.253016875125468 ] } },
{ "type": "Feature", "properties": { "fid": 47, "num": 47, "name": "Назаре", "type": 1, "adress": "ул. Димитрова, 7, Выборг", "Longitude": "28.7496095", "Latitude": 60.7121502 }, "geometry": { "type": "Point", "coordinates": [ 595466.356743787764572, 6732005.248781896196306 ] } },
{ "type": "Feature", "properties": { "fid": 48, "num": 48, "name": "Буфет СССР", "type": 1, "adress": "ул. Гагарина, 4, Выборг", "Longitude": "28.7566356", "Latitude": 60.6999366 }, "geometry": { "type": "Point", "coordinates": [ 595896.178004067041911, 6730647.805587633512914 ] } },
{ "type": "Feature", "properties": { "fid": 49, "num": 49, "name": "Клеопатра", "type": 1, "adress": "Железнодорожная ул., 8Б, Выборг", "Longitude": "28.749044", "Latitude": 60.7095622 }, "geometry": { "type": "Point", "coordinates": [ 595601.861815817304887, 6732311.316849734634161 ] } },
{ "type": "Feature", "properties": { "fid": 50, "num": 50, "name": "Вилла Карьяла", "type": 2, "adress": "Крепостная ул., 18, Выборг", "Longitude": "28.734215", "Latitude": 60.712574 }, "geometry": { "type": "Point", "coordinates": [ 594639.629635760444216, 6732027.283821005374193 ] } },
{ "type": "Feature", "properties": { "fid": 51, "num": 51, "name": "Хлебник", "type": 1, "adress": "проспект Ленина, 18, Выборг", "Longitude": "28.7471218", "Latitude": 60.7104945 }, "geometry": { "type": "Point", "coordinates": [ 595348.424701712559909, 6731804.238086276687682 ] } },
{ "type": "Feature", "properties": { "fid": 52, "num": 52, "name": "Карелла", "type": 1, "adress": "Крепостная ул., 17/9, Выборг", "Longitude": "28.7351502", "Latitude": 60.7118749 }, "geometry": { "type": "Point", "coordinates": [ 594696.462633762042969, 6731955.795778426341712 ] } },
{ "type": "Feature", "properties": { "fid": 53, "num": 53, "name": "Экстрим", "type": 2, "adress": "Ленинградская область, Выборг, мыс Смоляной", "Longitude": "28.7255395", "Latitude": 60.7143085 }, "geometry": { "type": "Point", "coordinates": [ 594204.712031616945751, 6731660.579698821529746 ] } },
{ "type": "Feature", "properties": { "fid": 54, "num": 54, "name": "Paparazzi bistro", "type": 2, "adress": "ул. Димитрова, 5, Выборг", "Longitude": "28.7483153", "Latitude": 60.7113463 }, "geometry": { "type": "Point", "coordinates": [ 595400.564019672339782, 6731910.369453527964652 ] } },
{ "type": "Feature", "properties": { "fid": 55, "num": 55, "name": "Трактир на Ржевском", "type": 2, "adress": "Ржевский пер., 7, Выборг", "Longitude": "28.7539806", "Latitude": 60.7055835 }, "geometry": { "type": "Point", "coordinates": [ 595725.740963280084543, 6731251.581753610633314 ] } },
{ "type": "Feature", "properties": { "fid": 56, "num": 56, "name": "Божоле", "type": 2, "adress": "Железнодорожная ул., 10, Выборг", "Longitude": "28.7536083", "Latitude": 60.7149573 }, "geometry": { "type": "Point", "coordinates": [ 595685.970350070041604, 6732310.245500174351037 ] } },
{ "type": "Feature", "properties": { "fid": 57, "num": 57, "name": "Hello, Bread!", "type": 1, "adress": "Крепостная ул., 2/4, Выборг", "Longitude": "28.7303452", "Latitude": 60.7141006 }, "geometry": { "type": "Point", "coordinates": [ 594419.638619882287458, 6732186.920477135106921 ] } },
{ "type": "Feature", "properties": { "fid": 58, "num": 58, "name": "Мимино", "type": 2, "adress": "ул. Водной Заставы, 1, Выборг", "Longitude": "28.7332359", "Latitude": 60.7135784 }, "geometry": { "type": "Point", "coordinates": [ 594578.884882117738016, 6732132.930748032405972 ] } },
{ "type": "Feature", "properties": { "fid": 59, "num": 59, "name": "Домино", "type": 2, "adress": "Сборная ул., 4, Выборг", "Longitude": "28.7663484", "Latitude": 60.7046699 }, "geometry": { "type": "Point", "coordinates": [ 596405.460073729045689, 6731200.668991474434733 ] } },
{ "type": "Feature", "properties": { "fid": 60, "num": 60, "name": "Шидо", "type": 2, "adress": "Ленинградский просп., 10, Выборг", "Longitude": "28.7445428", "Latitude": 60.711463 }, "geometry": { "type": "Point", "coordinates": [ 595210.475769373355433, 6731913.737513601779938 ] } },
{ "type": "Feature", "properties": { "fid": 61, "num": 61, "name": "Дом Лунда", "type": 2, "adress": "Прогонная ул., 6, Выборг", "Longitude": "28.734419", "Latitude": 60.7141946 }, "geometry": { "type": "Point", "coordinates": [ 594641.621612039161846, 6732203.250740271992981 ] } },
{ "type": "Feature", "properties": { "fid": 62, "num": 62, "name": "Остров", "type": 2, "adress": "наб. Адмирала Апраксина, 7А, Выборг", "Longitude": "28.724279", "Latitude": 60.7164759 }, "geometry": { "type": "Point", "coordinates": [ 594089.474702482111752, 6731780.492712019011378 ] } },
{ "type": "Feature", "properties": { "fid": 63, "num": 63, "name": "Черника", "type": 2, "adress": "Краснофлотская ул., 6, Выборг", "Longitude": "28.7342084", "Latitude": 60.7132679 }, "geometry": { "type": "Point", "coordinates": [ 594632.856657720520161, 6732099.756323620676994 ] } },
{ "type": "Feature", "properties": { "fid": 64, "num": 64, "name": "Жар пицца", "type": 2, "adress": "Московский просп., 9, Выборг", "Longitude": "28.7486023", "Latitude": 60.7060498 }, "geometry": { "type": "Point", "coordinates": [ 595418.502094925264828, 6731327.483277823776007 ] } },
{ "type": "Feature", "properties": { "fid": 65, "num": 65, "name": "Хлеб и мясо", "type": 2, "adress": "Краснофлотская ул., 5, Выборг", "Longitude": "28.735865", "Latitude": 60.713586 }, "geometry": { "type": "Point", "coordinates": [ 594722.303874054923654, 6732137.565645053051412 ] } },
{ "type": "Feature", "properties": { "fid": 66, "num": 66, "name": "Калевала", "type": 1, "adress": "ул. Северный Вал, 21, Выборг", "Longitude": "28.7371742", "Latitude": 60.7135764 }, "geometry": { "type": "Point", "coordinates": [ 594793.760884925024584, 6732138.385394436307251 ] } },
{ "type": "Feature", "properties": { "fid": 67, "num": 67, "name": "Удача", "type": 1, "adress": "просп. Ленина, 5, Выборг", "Longitude": "28.7507097", "Latitude": 60.7085114 }, "geometry": { "type": "Point", "coordinates": [ 595530.741609605494887, 6731601.726492437534034 ] } },
{ "type": "Feature", "properties": { "fid": 68, "num": 68, "name": "Солнечный день", "type": 2, "adress": "просп. Ленина, 9, Выборг", "Longitude": "28.7527259", "Latitude": 60.7077161 }, "geometry": { "type": "Point", "coordinates": [ 595642.459846070152707, 6731521.523403967730701 ] } },
{ "type": "Feature", "properties": { "fid": 69, "num": 69, "name": "Шашлычный двор", "type": 2, "adress": "Ленинградское ш., 65, Выборг", "Longitude": "28.7905889", "Latitude": 60.6957104 }, "geometry": { "type": "Point", "coordinates": [ 597800.609611551859416, 6730288.515074139460921 ] } },
{ "type": "Feature", "properties": { "fid": 70, "num": 70, "name": "Старый каретникЪ", "type": 2, "adress": "Крепостная ул., 8А, Выборг", "Longitude": "28.73196709999999", "Latitude": 60.7134544 }, "geometry": { "type": "Point", "coordinates": [ 594510.024395534070209, 6732117.296622176654637 ] } },
{ "type": "Feature", "properties": { "fid": 71, "num": 71, "name": "Вкус", "type": 2, "adress": "наб. 40-летия ВЛКСМ, 1, Выборг", "Longitude": "28.7405763", "Latitude": 60.7139338 }, "geometry": { "type": "Point", "coordinates": [ 594968.630097934277728, 6732193.998208518140018 ] } },
{ "type": "Feature", "properties": { "fid": 72, "num": 72, "name": "Лавка Буттенгоффа", "type": 2, "adress": "Крепостная ул., 7, Выборг", "Longitude": "28.7323809", "Latitude": 60.7129577 }, "geometry": { "type": "Point", "coordinates": [ 594544.573428146075457, 6732071.524786895141006 ] } },
{ "type": "Feature", "properties": { "fid": 73, "num": 73, "name": "Фабрика Вкуса", "type": 2, "adress": "Красноармейская ул., 16, Выборг", "Longitude": "28.7358967", "Latitude": 60.7126232 }, "geometry": { "type": "Point", "coordinates": [ 594729.777323592104949, 6732038.283874560147524 ] } },
{ "type": "Feature", "properties": { "fid": 74, "num": 74, "name": "Узбекская Кухня", "type": 2, "adress": "ул. Куйбышева, 8, Выборг", "Longitude": "28.7554691", "Latitude": 60.7120983 }, "geometry": { "type": "Point", "coordinates": [ 595794.565590247046202, 6732011.7698367331177 ] } },
{ "type": "Feature", "properties": { "fid": 75, "num": 75, "name": "Трапеза", "type": 2, "adress": "Северная ул., 9, Выборг", "Longitude": "28.7498561", "Latitude": 60.7112317 }, "geometry": { "type": "Point", "coordinates": [ 595471.05977930163499, 6731891.133507031016052 ] } },
{ "type": "Feature", "properties": { "fid": 76, "num": 76, "name": "Otso", "type": 2, "adress": "Ильинская ул., 7, Выборг", "Longitude": "28.758631", "Latitude": 60.71286 }, "geometry": { "type": "Point", "coordinates": [ 595966.556828066240996, 6732089.770482146181166 ] } },
{ "type": "Feature", "properties": { "fid": 77, "num": 77, "name": "Крендель", "type": 1, "adress": "ул. Северный Вал, 3, Выборг", "Longitude": "28.7295863", "Latitude": 60.7155177 }, "geometry": { "type": "Point", "coordinates": [ 594374.078388845548034, 6732343.628580826334655 ] } },
{ "type": "Feature", "properties": { "fid": 78, "num": 78, "name": "Эпиццентр", "type": 2, "adress": "Вокзальная ул., 4, Выборг", "Longitude": "28.7512948", "Latitude": 60.7130485 }, "geometry": { "type": "Point", "coordinates": [ 595566.961158419027925, 6732088.432825156487525 ] } },
{ "type": "Feature", "properties": { "fid": 79, "num": 79, "name": "Smile", "type": 1, "adress": "ул. Некрасова, 11, Выборг", "Longitude": "28.7595412", "Latitude": 60.7081685 }, "geometry": { "type": "Point", "coordinates": [ 596019.628356849541888, 6731573.198856929317117 ] } },
{ "type": "Feature", "properties": { "fid": 80, "num": 80, "name": "Выборгский трамвай", "type": 1, "adress": "60.711713, 28.736809", "Longitude": "28.7364132", "Latitude": 60.7115844 }, "geometry": { "type": "Point", "coordinates": [ 594784.941243823617697, 6731932.412778274156153 ] } },
{ "type": "Feature", "properties": { "fid": 81, "num": 81, "name": "Крем", "type": 1, "adress": "Северная ул., 10, Выборг", "Longitude": "28.7507522", "Latitude": 60.7113468 }, "geometry": { "type": "Point", "coordinates": [ 595538.117334371199831, 6731921.148869438096881 ] } },
{ "type": "Feature", "properties": { "fid": 82, "num": 82, "name": "Risole", "type": 1, "adress": "Вокзальная ул., 7, Выборг", "Longitude": "28.752066", "Latitude": 60.712482 }, "geometry": { "type": "Point", "coordinates": [ 595602.517687884042971, 6732031.847194161266088 ] } },
{ "type": "Feature", "properties": { "fid": 83, "num": 83, "name": "Хитрый Лис", "type": 1, "adress": "просп. Ленина, 2А, Выборг", "Longitude": "28.7397323", "Latitude": 60.7132605 }, "geometry": { "type": "Point", "coordinates": [ 594936.05101509205997, 6732107.879135425202549 ] } }
]
}
